[{"id":25,"name":"Arad","latitude":46.183331,"longitude":21.316669,"countryCode":"RO"},{"id":10,"name":"Bra\u015fov","latitude":45.656138,"longitude":25.610522,"countryCode":"RO"},{"id":1,"name":"Bucure\u015fti","latitude":44.43771,"longitude":26.097366,"countryCode":"RO"},{"id":14,"name":"Cluj-Napoca","latitude":46.76667,"longitude":23.6,"countryCode":"RO"},{"id":8,"name":"Constan\u0163a","latitude":44.173332,"longitude":28.638332,"countryCode":"RO"},{"id":17,"name":"Ia\u015fi","latitude":47.166698,"longitude":27.633301,"countryCode":"RO"},{"id":12,"name":"Oradea","latitude":47.066669,"longitude":21.933331,"countryCode":"RO"},{"id":22,"name":"Piatra Neam\u0163","latitude":46.927502,"longitude":26.370832,"countryCode":"RO"},{"id":7,"name":"Sibiu","latitude":45.799999,"longitude":24.15,"countryCode":"RO"},{"id":9,"name":"Timi\u015foara","latitude":45.766701,"longitude":21.233299,"countryCode":"RO"}]